# LAS format data
~Version Information
VERS.     2.00: CWLS LOG ASCII STANDARD - VERSION 2.0
WRAP.       NO: ONE LINE PER DEPTH STEP
~Well Information
#MNEM   .UNITS    DATA                           DESCRIPTION
#----   ------    ----                           -----------
STRT    .M        3928.0000                     :First Index Value
STOP    .M        64.9000                       :Last Index Value
STEP    .M        -0.1000                       :Frame Spacing
NULL    .         -999.2500                     :Absent Value
WELL    .         L07-01                        :Well Name
FLD     .         UNKNOWN                       :Field Name
UWI     .         L07-01                        :UWI Number
COMP    .         PETROLAND                     :Company Name
LATI    .DEG	53.722768                       :LATITUDE
LONG    .DEG	4.796468                        :LONGITUDE
~Parameter Information
#MNEM   .UNITS    VALUE                          DESCRIPTION
#----   ------    -----                          -----------
TDL     .M        3934.00000                    :Total Depth (Logger)
TDD     .M        3934.00000                    :Total Depth (Driller)
UBID    .         7264                          :Unique Borehole Id
PDAT    .         Mean Sea Level                :Permanent Datum
EPD     .M           0.00000                    :Elevation of Permanent Datum (PDAT) above Mean Sea Level
LMF     .         Rotary Table                  :Logging Measured From (Name of Logging Elevation Reference)
APD     .M          37.00000                    :Elevation of Depth Reference (LMF) Above Permanent Datum
EGL     .M         -36.00000                    :Elevation of Ground Level Above Mean Sea Level
~Curve Information
#MNEM   .UNITS    API CODE                       CURVE DESCRIPTION
#----   ------    --------                       -----------------
DEPT    .M                                      :1     Index curve
GR      .GAPI                                   :2     L07-01
DT      .US/F                                   :3     L07-01
RHOB    .G/C3                                   :4     L07-01
NPHI    .V/V                                    :5     L07-01
~Ascii Log Data
    3915.8000    122.553802     64.379776      2.644257      0.169934
    3915.7000    115.726624     63.197090      2.642402      0.169571
    3915.6000    110.467072     62.798241      2.643563      0.169327
    3915.5000    107.652710     62.943977      2.651648      0.165392
    3915.4000    106.274506     63.456696      2.662200      0.152283
    3915.3000    106.462662     64.146286      2.671766      0.135434
    3915.2000    108.108566     64.902924      2.678474      0.122410
    3915.1000    110.322037     65.735016      2.683295      0.114615
    3915.0000    112.750443     66.669373      2.685328      0.113641
    3914.9000    115.101288     67.686020      2.683579      0.117726
    3914.8000    117.240662     68.698685      2.678157      0.122381
    3914.7000    119.028671     69.643845      2.674752      0.125797
    3914.6000    120.244705     70.524780      2.674784      0.128013
    3914.5000    120.707581     71.381226      2.671692      0.129964
    3914.4000    120.120010     72.245041      2.674881      0.135483
    3914.3000    119.192154     73.086960      2.689279      0.145471
    3914.2000    119.439972     73.745361      2.705035      0.156624
    3914.1000    121.550705     74.055496      2.714981      0.170121
    3914.0000    124.680969     74.045441      2.720157      0.185911
    3913.9000    127.423798     73.866455      2.726121      0.199710
    3913.8000    129.367401     73.647552      2.730573      0.209216
    3913.7000    130.553802     73.480026      2.731914      0.215779
    3913.6000    130.303070     73.440308      2.737364      0.221904
    3913.5000    129.005035     73.459732      2.740958      0.227517
    3913.4000    127.540802     73.243225      2.734794      0.231443
    3913.3000    125.701859     72.572266      2.721818      0.232307
    3913.2000    123.669357     71.559464      2.707522      0.232016
    3913.1000    122.033585     70.568176      2.694887      0.232640
    3913.0000    121.560349     70.142822      2.687262      0.231053
    3912.9000    122.046021     70.577805      2.689872      0.225530
    3912.8000    122.611435     71.481110      2.702394      0.218103
    3912.7000    122.569321     72.174866      2.707283      0.214440
    3912.6000    121.277405     72.357651      2.698795      0.216244
    3912.5000    118.559494     71.866608      2.686975      0.220313
    3912.4000    115.351898     70.537430      2.682626      0.220195
    3912.3000    111.769424     68.546600      2.686674      0.212709
    3912.2000    107.097809     66.439499      2.692176      0.200101
    3912.1000    102.962265     64.807236      2.700844      0.186439
    3912.0000    101.493973     63.902596      2.712258      0.173106
    3911.9000    103.297424     63.728493      2.720428      0.158422
    3911.8000    106.289474     64.138611      2.717371      0.144442
    3911.7000    108.557281     65.015472      2.703021      0.133929
    3911.6000    110.997482     66.272263      2.689466      0.126813
    3911.5000    112.943115     67.879974      2.684506      0.122731
    3911.4000    113.626724     69.799484      2.688004      0.121720
    3911.3000    113.980835     71.707077      2.689014      0.125077
    3911.2000    114.050598     73.098389      2.687737      0.131035
    3911.1000    113.766785     73.558640      2.683791      0.138747
    3911.0000    113.666901     73.003311      2.663733      0.155415
    3910.9000    114.309769     71.759033      2.646806      0.178719
