#------------------------------------------------------------
~VERSION INFORMATION
VERS.               2.0  :CWLS LOG ASCII STANDARD - VERSION 2.0
WRAP.                NO  :ONE LINE PER DEPTH STEP
#------------------------------------------------------------
~WELL INFORMATION
STRT.M        0.0500000  :FIRST INDEX VALUE
STOP.M          136.600  :LAST INDEX VALUE
STEP.M        0.0500000  :STEP
NULL.            -99999  :NULL VALUE
COMP.                    :COMP
WELL.        Scorpio E1  :WELL
FLD.                     :
LOC.             Mt Eba  :LOC
SRVC.                    :
CTRY.                    :
STAT.                SA  :STAT
CNTY.                    :
DATE.        15/03/2015  :DATE
UWI.           6038-187  :WUNT
#------------------------------------------------------------
~CURVE INFORMATION
DEPT.M                   :DEPTH
CALI.MM                  :CALI
DFAR.G/CM3               :DFAR
DNEAR.G/CM3              :DNEAR
GAMN.GAPI                :GAMN
NEUT.CPS                 :NEUT
PR.OHM/M                 :PR
SP.MV                    :SP
COND.MS/M                :COND
#------------------------------------------------------------
~PARAMETER INFORMATION
BS.              216 mm  :BS
PURP. Cased hole stratigraphy  :PURP
X.              0560160  :X
CSGL.       0 m - 135 m  :CSGL
Y.              6686430  :Y
TDL.            135.2 m  :TDL
MUD.              Water  :MUD
CSGS.            100 mm  :CSGS
STEP.              5 cm  :STEP
FluidLevel.        54 m  :FluidLevel
CSGT.               PVC  :CSGT
ZONE.               53J  :ZONE
DREF.                GL  :DREF
TDD.              136 m  :TDD
#------------------------------------------------------------
~OTHER
#------------------------------------------------------------
~A   DEPT[M]        CALI        DFAR       DNEAR        GAMN        NEUT          PR          SP        COND
     30.6000     101.450     1.71800     1.92600     72.0574     909.990     50499.9     100.571     49.5688
     30.6500     101.492     1.71000     1.90800     79.0252     854.006     50499.9     100.574     48.5811
     30.7000     101.444     1.72400     1.95800     72.0546     867.997     50499.9     100.610     47.8402
     30.7500     101.444     1.70200     1.92000     79.0249     884.997     50499.9     100.604     49.0748
     30.8000     101.510     1.67800     1.91700     53.4609     840.003     50499.9     100.601     48.8280
     30.8500     101.504     1.69000     1.94600     79.0211     860.996     50499.9     100.607     48.3341
     30.9000     101.516     1.71800     1.92500     60.4341     822.004     50499.9     100.604     49.5689
     30.9500     101.516     1.71000     1.90800     97.6125     810.003     50499.9     100.653     49.5690
     31.0000     101.420     1.64500     1.94400     72.0569     845.995     50499.9     100.629     49.5690
     31.0500     101.498     1.63500     1.89500     85.9979     781.005     50499.9     100.574     49.5690
     31.1000     101.510     1.67300     1.96000     48.8171     831.990     50499.9     100.604     45.1238
     31.1500     101.504     1.66900     1.93100     60.4307     889.993     50499.9     100.626     50.0624
     31.2000     101.612     1.67900     1.94000     62.7555     843.011     50499.9     100.638     50.0630
     31.2500     101.642     1.65700     1.92900     79.0235     809.005     50499.9     100.620     50.0630
     31.3000     101.624     1.62300     1.87200     106.916     860.996     50499.9     100.647     49.5690
     31.3500     101.588     1.62400     1.87500     76.7078     862.000     50499.9     100.641     49.3220
     31.4000     101.630     1.63300     1.87400     58.1091     900.996     50499.9     100.629     49.0750
     31.4500     101.546     1.61100     1.87200     81.3457     914.997     50499.9     100.604     49.0750
     31.5000     101.576     1.57300     1.85700     81.3510     855.009     50499.9     100.638     49.0750
     31.5500     101.588     1.57900     1.87300     72.0537     875.998     50499.9     100.629     49.0750
     31.6000     101.474     1.58100     1.83600     67.4059     862.003     50499.9     100.635     48.5811
     31.6500     101.462     1.58300     1.78100     83.6731     895.996     50499.9     100.629     49.0749
     31.7000     101.492     1.56400     1.75400     69.7322     885.003     50499.9     100.665     48.3342
     31.7500     101.253     1.57300     1.69800     72.0527     887.000     50499.9     100.665     48.0870
     31.8000     101.468     1.53100     1.65800     65.0805     908.998     50499.9     100.659     48.5810
     31.8500     101.540     1.56600     1.68100     74.3762     892.003     50499.9     100.671     49.0749
     31.9000     101.552     1.58100     1.63700     79.0255     875.002     50499.9     100.677     48.8280
     31.9500     101.522     1.57900     1.74500     76.7025     877.000     50499.9     100.720     49.0749
     32.0000     101.540     1.57900     1.78100     62.7581     868.001     50499.9     100.708     49.0750
     32.0500     101.528     1.60000     1.78000     85.9972     821.004     50499.9     100.739     49.3220
     32.1000     101.600     1.60000     1.80100     62.7595     857.994     50499.9     100.769     48.8281
     32.1500     101.378     1.58000     1.76300     97.6157     827.005     50499.9     100.787     48.3341
     32.2000     101.444     1.60300     1.77400     69.7354     788.009     50499.9     100.821     49.3218
     32.2500     101.570     1.60700     1.77700     79.0246     812.996     50499.9     100.781     49.5690
     32.3000     101.570     1.63000     1.77500     48.8123     769.003     50499.9     100.858     50.0630
     32.3500     101.588     1.60300     1.85400     44.1627     749.003     50499.9     100.912     49.8160
     32.4000     101.666     1.61400     1.81300     65.0768     801.992     50499.9     100.964     50.0630
     32.4500     101.624     1.60200     1.82600     69.7279     788.003     45075.1     100.873     51.5447
     32.5000     101.606     1.65200     1.84300     62.7571     802.998     44580.6     100.464     51.5450
     32.5500     101.510     1.59900     1.84100     62.7560     872.995     44794.7     100.308     50.5571
     32.6000     101.492     1.57700     1.82000     79.0235     871.000     45348.9     100.671     50.8040
     32.6500     101.624     1.59400     1.79900     90.6462     872.000     49319.0     101.086     49.8162
     32.7000     101.600     1.60900     1.77000     62.7624     893.995     50499.6     101.187     50.0629
     32.7500     101.690     1.60400     1.83600     58.1077     954.991     44976.6     101.230     49.0752
     32.8000     101.660     1.67700     1.85600     72.0519     962.999     45922.8     101.282     50.0629
     32.8500     101.636     1.64700     1.82100     79.0249     944.003     46192.7     101.263     48.8282
     32.9000     101.516     1.68900     1.83700     69.7304     984.994     45003.9     101.291     51.5446
     32.9500     101.462     1.66900     1.85900     74.3769     970.003     44009.6     101.300     49.3225
     33.0000     101.588     1.67500     1.88200     41.8420     983.998     44573.6     101.331     48.0872
     33.0500     101.672     1.63400     1.89600     53.4581     963.002     44450.2     101.276     48.0870
     33.1000     101.708     1.64300     1.90100     79.0221     971.999     47686.2     101.263     48.0870
     33.1500     101.720     1.71200     1.94400     72.0541     1055.99     50499.4     101.230     47.3461
     33.2000     101.708     1.68900     1.87500     30.2256     1008.01     50499.9     101.172     47.3460
     33.2500     101.708     1.69000     1.96600     67.3993     965.007     50499.9     101.202     46.6051
     33.3000     101.696     1.69500     1.93600     55.7839     986.998     50499.9     101.230     47.3459
     33.3500     101.684     1.66700     1.93300     55.7830     930.009     50499.9     101.245     47.0990
     33.4000     101.672     1.69900     1.94700     72.0505     963.995     50499.9     101.260     46.8520
     33.4500     101.786     1.69300     1.94100     46.4919     940.005     50499.9     101.257     47.0989
     33.5000     101.966     1.67800     1.96000     60.4299     992.992     50499.9     101.324     47.0990
     33.5500     101.744     1.68000     1.93900     67.4045     1023.00     50499.9     101.254     47.0990
